City,Country,Date,Humidity,Cloudiness,Lat,Lng,Max Temp,Wind Speed
greenville,US,2020-01-26 09:07:19,56.0,1.0,35.61,-77.37,48.2,6.93
adrar,MR,2020-01-26 09:07:19,13.0,96.0,20.5,-10.07,86.52,12.28
ushuaia,AR,2020-01-26 09:05:55,81.0,75.0,-54.8,-68.3,46.4,24.16
port elizabeth,ZA,2020-01-26 09:05:17,63.0,91.0,-33.92,25.57,66.2,34.45
busselton,AU,2020-01-26 09:07:20,37.0,0.0,-33.65,115.33,73.99,12.08
havoysund,NO,2020-01-26 09:07:20,78.0,40.0,71.0,24.66,17.6,10.29
tessalit,ML,2020-01-26 09:07:20,6.0,53.0,20.2,1.01,90.41,0.96
barrow,US,2020-01-26 09:07:20,74.0,1.0,71.29,-156.79,-22.0,8.05
ribeira grande,PT,2020-01-26 09:07:20,93.0,75.0,38.52,-28.7,60.8,14.99
punta arenas,CL,2020-01-26 09:04:08,54.0,20.0,-53.15,-70.92,57.0,42.5
saint-francois,FR,2020-01-26 09:07:20,76.0,94.0,46.42,3.91,48.99,3.36
margate,GB,2020-01-26 09:07:21,81.0,75.0,51.38,1.39,50.0,14.99
rikitea,PF,2020-01-26 09:07:21,78.0,94.0,-23.12,-134.97,79.16,14.63
georgetown,MY,2020-01-26 09:07:21,74.0,20.0,5.41,100.34,84.2,5.82
hermanus,ZA,2020-01-26 09:07:22,65.0,0.0,-34.42,19.23,69.01,4.0
keningau,MY,2020-01-26 09:07:22,88.0,75.0,5.34,116.16,82.4,4.7
tasiilaq,GL,2020-01-26 09:07:23,53.0,75.0,65.61,-37.64,32.0,12.75
makurdi,NG,2020-01-26 09:07:23,6.0,0.0,7.74,8.51,98.42,7.31
cape town,ZA,2020-01-26 09:04:19,49.0,40.0,-33.93,18.42,70.0,19.46
turayf,SA,2020-01-26 09:07:23,65.0,0.0,31.67,38.66,46.4,5.82
kapaa,US,2020-01-26 09:07:23,88.0,40.0,22.08,-159.32,73.4,8.05
big spring,US,2020-01-26 09:07:23,75.0,1.0,32.25,-101.48,44.6,4.7
lac du bonnet,CA,2020-01-26 09:07:23,98.0,76.0,50.25,-96.06,19.99,4.0
zwedru,LR,2020-01-26 09:07:24,18.0,0.0,6.07,-8.13,97.92,5.48
aswan,EG,2020-01-26 09:07:24,23.0,0.0,24.09,32.91,70.88,9.13
iwanai,JP,2020-01-26 09:07:24,72.0,100.0,42.97,140.51,26.58,15.93
bluff,NZ,2020-01-26 09:07:24,90.0,4.0,-46.6,168.33,53.01,1.01
cururupu,BR,2020-01-26 09:07:24,73.0,100.0,-1.83,-44.87,86.59,4.68
mar del plata,AR,2020-01-26 09:05:22,24.0,100.0,-38.0,-57.56,91.99,9.17
kpandae,GH,2020-01-26 09:07:25,4.0,40.0,8.47,-0.01,100.04,4.47
culaman,PH,2020-01-26 09:07:25,92.0,6.0,5.96,125.66,68.36,1.61
hobart,AU,2020-01-26 09:05:08,44.0,100.0,-42.88,147.33,60.8,11.41
tuktoyaktuk,CA,2020-01-26 09:07:25,75.0,75.0,69.45,-133.04,-16.6,9.17
port alfred,ZA,2020-01-26 09:07:25,76.0,87.0,-33.59,26.89,66.0,10.0
lorengau,PG,2020-01-26 09:07:25,76.0,100.0,-2.02,147.27,83.97,6.78
winnemucca,US,2020-01-26 09:07:26,80.0,90.0,40.97,-117.74,42.01,3.36
atuona,PF,2020-01-26 09:07:26,76.0,0.0,-9.8,-139.03,80.15,12.93
yar-sale,RU,2020-01-26 09:07:26,100.0,81.0,66.83,70.83,-11.02,3.0
mantsala,FI,2020-01-26 09:07:26,86.0,75.0,60.63,25.32,39.99,6.93
banda aceh,ID,2020-01-26 09:07:26,80.0,57.0,5.56,95.32,73.44,3.44
colac,AU,2020-01-26 09:07:26,93.0,78.0,-38.33,143.58,61.0,0.69
oriximina,BR,2020-01-26 09:07:27,62.0,100.0,-1.77,-55.87,87.71,3.04
nome,US,2020-01-26 09:03:06,63.0,1.0,64.5,-165.41,-7.6,3.36
hilo,US,2020-01-26 09:07:27,68.0,75.0,19.73,-155.09,66.2,8.05
paamiut,GL,2020-01-26 09:07:27,66.0,17.0,61.99,-49.67,15.8,19.1
constitucion,CL,2020-01-26 09:07:27,56.0,0.0,-35.33,-72.42,74.25,9.46
torbay,CA,2020-01-26 09:05:13,63.0,40.0,47.67,-52.73,34.0,5.82
chirongui,YT,2020-01-26 09:07:28,88.0,75.0,-12.93,45.15,82.4,3.36
litovko,RU,2020-01-26 09:07:28,90.0,0.0,49.24,135.17,-4.43,3.53
mataura,NZ,2020-01-26 09:07:28,90.0,42.0,-46.19,168.86,53.01,1.01
alice springs,AU,2020-01-26 09:07:28,15.0,66.0,-23.7,133.88,77.0,6.93
cherskiy,RU,2020-01-26 09:07:28,95.0,100.0,68.75,161.3,-17.54,3.74
provideniya,RU,2020-01-26 09:07:29,89.0,0.0,64.38,-173.3,-6.48,3.4
port augusta,AU,2020-01-26 09:07:29,77.0,40.0,-32.5,137.77,68.0,8.05
berdigestyakh,RU,2020-01-26 09:07:29,98.0,100.0,62.1,126.7,-17.21,8.3
puerto ayora,EC,2020-01-26 09:07:29,65.0,75.0,-0.74,-90.35,82.4,4.7
hithadhoo,MV,2020-01-26 09:07:29,80.0,100.0,-0.6,73.08,82.06,10.58
kaitangata,NZ,2020-01-26 09:07:29,92.0,87.0,-46.28,169.85,56.84,7.18
la crosse,US,2020-01-26 09:07:30,100.0,90.0,43.8,-91.24,28.0,6.93
thompson,CA,2020-01-26 09:07:30,77.0,20.0,55.74,-97.86,-2.2,4.7
stornoway,GB,2020-01-26 09:07:30,86.0,20.0,58.21,-6.39,37.4,20.8
sambava,MG,2020-01-26 09:07:30,96.0,89.0,-14.27,50.17,74.07,1.86
beloha,MG,2020-01-26 09:07:30,45.0,33.0,-25.17,45.05,83.14,16.53
kologriv,RU,2020-01-26 09:07:30,96.0,100.0,58.83,44.32,10.51,4.74
bradford,GB,2020-01-26 09:07:31,93.0,40.0,53.79,-1.75,46.99,10.29
la primavera,CO,2020-01-26 09:07:31,40.0,56.0,5.49,-70.41,90.46,9.93
kodiak,US,2020-01-26 09:04:37,61.0,90.0,57.79,-152.41,15.8,10.29
bay roberts,CA,2020-01-26 09:07:31,63.0,40.0,47.6,-53.26,34.0,5.82
mananjary,MG,2020-01-26 09:07:31,64.0,12.0,-21.22,48.33,78.57,11.74
soyo,AO,2020-01-26 09:07:31,74.0,75.0,-6.13,12.37,87.8,8.05
bonthe,SL,2020-01-26 09:07:32,53.0,12.0,7.53,-12.51,88.18,12.62
jamestown,US,2020-01-26 09:07:32,92.0,90.0,42.1,-79.24,33.8,12.75
carmen,MX,2020-01-26 09:07:32,78.0,40.0,18.63,-91.83,75.2,17.22
mahebourg,MU,2020-01-26 09:07:32,78.0,75.0,-20.41,57.7,78.8,11.41
beira,MZ,2020-01-26 09:05:24,71.0,0.0,-19.84,34.84,82.27,10.85
arraial do cabo,BR,2020-01-26 09:07:32,58.0,20.0,-22.97,-42.03,84.2,11.41
edwardsville,US,2020-01-26 09:04:50,86.0,1.0,38.81,-89.95,37.99,5.82
saint george,US,2020-01-26 09:07:32,68.0,1.0,37.1,-113.58,42.01,5.82
piacabucu,BR,2020-01-26 09:07:33,64.0,9.0,-10.41,-36.43,87.57,13.82
khowst,AF,2020-01-26 09:07:33,56.0,0.0,33.38,69.88,43.36,2.33
new norfolk,AU,2020-01-26 09:07:33,44.0,100.0,-42.78,147.06,60.8,11.41
ancud,CL,2020-01-26 09:07:33,55.0,40.0,-41.87,-73.82,64.4,6.93
souillac,MU,2020-01-26 09:07:33,78.0,75.0,-20.52,57.52,78.8,11.41
mayo,US,2020-01-26 09:04:05,62.0,40.0,38.89,-76.51,46.99,8.05
port blair,IN,2020-01-26 09:07:33,71.0,83.0,11.67,92.75,78.42,14.25
iqaluit,CA,2020-01-26 09:07:33,60.0,20.0,63.75,-68.51,-29.0,10.29
lompoc,US,2020-01-26 09:07:34,93.0,90.0,34.64,-120.46,55.99,10.74
dikson,RU,2020-01-26 09:07:34,96.0,98.0,73.51,80.55,-3.37,2.91
vilhena,BR,2020-01-26 09:07:34,74.0,40.0,-12.74,-60.15,82.4,8.05
belmonte,BR,2020-01-26 09:07:34,83.0,40.0,-15.86,-38.88,86.0,4.7
cockburn town,TC,2020-01-26 09:07:34,69.0,40.0,21.46,-71.14,77.0,6.93
asau,RO,2020-01-26 09:07:34,64.0,0.0,46.43,26.4,37.4,9.17
bereda,ES,2020-01-26 09:07:34,76.0,75.0,43.27,-7.54,57.99,17.22
luderitz,NA,2020-01-26 09:07:35,53.0,0.0,-26.65,15.16,77.0,33.33
longyearbyen,SJ,2020-01-26 09:07:35,77.0,0.0,78.22,15.64,-2.2,3.36
yellowknife,CA,2020-01-26 09:07:35,92.0,90.0,62.46,-114.35,12.2,5.82
bathsheba,BB,2020-01-26 09:07:35,58.0,40.0,13.22,-59.52,84.2,10.29
washougal,US,2020-01-26 09:05:46,81.0,40.0,45.58,-122.35,50.0,13.87
saskylakh,RU,2020-01-26 09:07:35,95.0,96.0,71.92,114.08,-17.73,11.83
carballo,ES,2020-01-26 09:07:36,76.0,75.0,43.21,-8.69,57.99,17.22
qaanaaq,GL,2020-01-26 09:07:36,56.0,0.0,77.48,-69.36,-10.73,6.24
hay river,CA,2020-01-26 09:07:36,92.0,90.0,60.82,-115.8,12.2,11.41
avarua,CK,2020-01-26 09:07:36,88.0,100.0,-21.21,-159.78,80.6,11.41
la macarena,CO,2020-01-26 09:07:36,41.0,100.0,2.18,-73.78,88.54,6.71
san felipe,VE,2020-01-26 09:07:36,57.0,13.0,10.34,-68.74,84.63,1.83
komsomolskiy,UZ,2020-01-26 09:07:36,69.0,75.0,40.43,71.72,37.4,4.7
tokur,RU,2020-01-26 09:07:37,99.0,89.0,53.13,132.9,-20.9,2.17
carnarvon,AU,2020-01-26 09:07:37,88.0,0.0,-24.87,113.63,77.0,17.22
puerto baquerizo moreno,EC,2020-01-26 09:07:37,88.0,90.0,-0.9,-89.6,78.8,8.05
egvekinot,RU,2020-01-26 09:07:37,73.0,94.0,66.32,-179.17,-6.9,3.85
eston,CA,2020-01-26 09:07:37,100.0,90.0,51.15,-108.75,30.99,4.7
khatanga,RU,2020-01-26 09:07:37,100.0,98.0,71.97,102.5,-20.76,1.32
kruisfontein,ZA,2020-01-26 09:07:38,59.0,39.0,-34.0,24.73,64.81,30.58
albany,US,2020-01-26 09:04:22,76.0,90.0,42.6,-73.97,37.99,9.17
awjilah,LY,2020-01-26 09:07:38,24.0,100.0,29.11,21.29,64.9,7.49
roald,NO,2020-01-26 09:07:38,73.0,75.0,62.58,6.13,48.2,12.75
honningsvag,NO,2020-01-26 09:07:38,79.0,75.0,70.98,25.97,19.4,13.87
odessa,UA,2020-01-26 09:07:38,69.0,0.0,46.48,30.73,32.0,6.71
chernyshevskiy,RU,2020-01-26 09:07:38,92.0,100.0,63.01,112.47,12.49,10.09
taltal,CL,2020-01-26 09:07:39,70.0,0.0,-25.4,-70.48,72.95,8.19
karasburg,NA,2020-01-26 09:07:39,15.0,0.0,-28.02,18.75,84.56,19.71
east london,ZA,2020-01-26 09:06:00,60.0,40.0,-33.02,27.91,68.0,19.46
kavaratti,IN,2020-01-26 09:07:39,67.0,38.0,10.57,72.64,81.43,7.72
ayagoz,KZ,2020-01-26 09:07:39,78.0,0.0,47.97,80.44,4.08,3.83
gorgan,IR,2020-01-26 09:07:39,86.0,0.0,36.84,54.43,41.0,4.7
vaini,TO,2020-01-26 09:07:39,100.0,75.0,-21.2,-175.2,77.0,4.7
high prairie,CA,2020-01-26 09:05:16,87.0,0.0,55.43,-116.49,19.4,4.9
nikolskoye,RU,2020-01-26 09:07:40,86.0,90.0,59.7,30.79,37.4,22.37
lasa,IT,2020-01-26 09:07:40,92.0,75.0,46.62,10.7,46.4,10.29
flora,US,2020-01-26 09:07:40,82.0,40.0,38.67,-88.49,35.01,3.36
te anau,NZ,2020-01-26 09:07:40,88.0,19.0,-45.42,167.72,54.21,6.33
asfi,MA,2020-01-26 09:07:41,54.0,0.0,32.3,-9.24,64.67,7.65
barcelos,PT,2020-01-26 09:07:41,82.0,20.0,41.54,-8.62,57.2,14.99
saint anthony,US,2020-01-26 09:07:41,79.0,90.0,45.02,-93.22,24.8,3.36
mayumba,GA,2020-01-26 09:07:41,70.0,100.0,-3.43,10.66,83.86,6.78
airai,TL,2020-01-26 09:07:41,93.0,16.0,-8.93,125.41,69.12,1.77
tucurui,BR,2020-01-26 09:07:41,59.0,100.0,-3.77,-49.67,89.92,1.41
chuy,UY,2020-01-26 09:07:41,52.0,67.0,-33.7,-53.46,82.06,9.57
bandarbeyla,SO,2020-01-26 09:07:41,81.0,0.0,9.49,50.81,78.22,23.51
yatou,CN,2020-01-26 09:07:42,71.0,100.0,37.15,122.38,40.91,17.13
ponta do sol,PT,2020-01-26 09:07:42,63.0,40.0,32.67,-17.1,64.4,9.17
ushtobe,KZ,2020-01-26 09:07:42,94.0,94.0,45.25,77.98,25.7,0.22
severo-kurilsk,RU,2020-01-26 09:07:42,91.0,100.0,50.68,156.12,18.1,20.94
pisco,PE,2020-01-26 09:07:42,30.0,40.0,-13.7,-76.22,73.99,9.17
santa maria,BR,2020-01-26 09:07:42,51.0,40.0,-29.68,-53.81,86.0,5.82
westport,US,2020-01-26 09:06:03,72.0,75.0,41.14,-73.36,45.0,12.75
sur,OM,2020-01-26 09:07:43,62.0,27.0,22.57,59.53,68.81,11.72
minab,IR,2020-01-26 09:07:43,54.0,75.0,27.15,57.08,59.0,2.24
tiksi,RU,2020-01-26 09:07:43,72.0,0.0,71.69,128.87,-31.77,3.65
vardo,NO,2020-01-26 09:07:43,85.0,20.0,70.37,31.11,17.6,14.99
sorland,NO,2020-01-26 09:07:43,71.0,40.0,67.67,12.69,32.0,25.28
plettenberg bay,ZA,2020-01-26 09:07:44,68.0,69.0,-34.05,23.37,64.2,17.6
beipiao,CN,2020-01-26 09:07:44,68.0,41.0,41.79,120.78,13.77,0.25
lagoa,PT,2020-01-26 09:07:44,75.0,100.0,39.05,-27.98,59.11,13.58
butaritari,KI,2020-01-26 09:07:44,73.0,95.0,3.07,172.79,85.1,11.56
amahai,ID,2020-01-26 09:07:44,73.0,81.0,-3.33,128.92,83.71,3.04
dakar,SN,2020-01-26 09:02:53,12.0,100.0,14.69,-17.44,95.0,21.92
upernavik,GL,2020-01-26 09:07:44,97.0,100.0,72.79,-56.15,-16.29,5.55
doha,QA,2020-01-26 09:05:58,55.0,5.0,25.29,51.53,61.0,13.87
martigny,CH,2020-01-26 09:07:45,60.0,75.0,46.08,7.08,42.8,3.36
verkhnevilyuysk,RU,2020-01-26 09:07:45,96.0,100.0,63.45,120.32,-9.31,10.49
fort-shevchenko,KZ,2020-01-26 09:07:45,90.0,100.0,44.51,50.26,35.15,21.09
lavrentiya,RU,2020-01-26 09:07:45,78.0,0.0,65.58,-171.0,-14.44,0.45
esperance,AU,2020-01-26 09:07:45,93.0,75.0,-33.87,121.9,62.6,6.93
itapetininga,BR,2020-01-26 09:07:45,45.0,0.0,-23.59,-48.05,83.52,1.59
dauphin,CA,2020-01-26 09:07:45,100.0,90.0,51.15,-100.05,19.4,8.05
qui nhon,VN,2020-01-26 09:07:46,94.0,100.0,13.77,109.23,67.48,2.55
nanortalik,GL,2020-01-26 09:07:46,69.0,100.0,60.14,-45.24,21.94,21.63
bethel,US,2020-01-26 09:06:51,79.0,75.0,41.37,-73.41,44.01,12.75
caravelas,BR,2020-01-26 09:07:46,84.0,100.0,-17.71,-39.25,78.28,11.95
mount isa,AU,2020-01-26 09:07:46,100.0,90.0,-20.73,139.5,77.0,6.93
teguldet,RU,2020-01-26 09:07:47,90.0,100.0,57.31,88.17,12.81,10.83
klaksvik,FO,2020-01-26 09:07:47,63.0,45.0,62.23,-6.59,37.4,14.99
lexington park,US,2020-01-26 09:07:47,70.0,90.0,38.27,-76.45,48.0,3.36
diego de almagro,CL,2020-01-26 09:07:47,45.0,0.0,-26.37,-70.05,77.77,6.96
tsiroanomandidy,MG,2020-01-26 09:07:47,81.0,83.0,-18.77,46.03,76.87,4.9
nicoya,CR,2020-01-26 09:07:47,57.0,5.0,10.15,-85.45,80.6,2.24
oum hadjer,TD,2020-01-26 09:07:48,6.0,0.0,13.3,19.7,87.42,5.14
fowa,NG,2020-01-26 09:07:48,4.0,37.0,8.92,6.4,103.15,0.43
ampanihy,MG,2020-01-26 09:07:48,33.0,94.0,-24.7,44.75,89.92,8.19
leningradskiy,RU,2020-01-26 09:07:48,94.0,100.0,69.38,178.42,-9.94,8.1
umarkot,PK,2020-01-26 09:07:48,25.0,14.0,25.36,69.74,71.92,5.7
ojinaga,MX,2020-01-26 09:07:48,45.0,1.0,29.57,-104.42,51.8,1.34
altagracia de orituco,VE,2020-01-26 09:07:48,46.0,96.0,9.86,-66.38,83.34,3.09
cabo san lucas,MX,2020-01-26 09:06:24,82.0,20.0,22.89,-109.91,69.01,2.24
laguna,US,2020-01-26 09:07:49,100.0,90.0,38.42,-121.42,55.99,10.29
ust-nera,RU,2020-01-26 09:07:49,100.0,97.0,64.57,143.2,-39.3,2.06
berlevag,NO,2020-01-26 09:07:49,72.0,40.0,70.86,29.09,19.4,18.34
coihaique,CL,2020-01-26 09:07:49,38.0,20.0,-45.58,-72.07,59.0,6.93
alofi,NU,2020-01-26 09:07:49,100.0,1.0,-19.06,-169.92,77.0,5.82
qaqortoq,GL,2020-01-26 09:07:49,66.0,75.0,60.72,-46.03,12.2,5.82
hami,CN,2020-01-26 09:07:50,66.0,100.0,42.8,93.45,13.62,2.8
chokurdakh,RU,2020-01-26 09:07:50,96.0,100.0,70.63,147.92,-18.56,4.72
darhan,MN,2020-01-26 09:07:50,80.0,97.0,49.49,105.92,3.7,4.65
lengshuitan,CN,2020-01-26 09:07:50,82.0,100.0,26.41,111.6,40.69,7.43
salalah,OM,2020-01-26 09:03:15,41.0,0.0,17.02,54.09,78.8,20.8
hasaki,JP,2020-01-26 09:07:50,56.0,75.0,35.73,140.83,35.6,4.7
mahon,ES,2020-01-26 09:07:50,72.0,20.0,39.89,4.27,60.8,6.93
tshikapa,CD,2020-01-26 09:07:51,60.0,100.0,-6.42,20.8,86.45,5.23
nalvo,PH,2020-01-26 09:07:51,90.0,67.0,16.81,120.51,69.67,2.55
tanda,IN,2020-01-26 09:07:51,68.0,0.0,26.55,82.65,56.7,5.19
barentu,ER,2020-01-26 09:07:51,24.0,0.0,15.11,37.59,75.36,16.26
caucaia,BR,2020-01-26 09:07:51,88.0,90.0,-3.74,-38.65,86.0,12.75
fereydun kenar,IR,2020-01-26 09:07:51,81.0,0.0,36.69,52.52,44.6,4.7
erzin,TR,2020-01-26 09:07:52,53.0,40.0,36.96,36.2,55.99,4.7
sandnessjoen,NO,2020-01-26 09:07:52,74.0,75.0,66.02,12.63,37.4,3.36
dargaville,NZ,2020-01-26 09:07:52,98.0,4.0,-35.93,173.88,59.4,1.21
kununurra,AU,2020-01-26 09:07:52,83.0,40.0,-15.77,128.73,82.4,8.05
flinders,AU,2020-01-26 09:07:52,73.0,90.0,-34.58,150.86,73.99,11.41
buin,CL,2020-01-26 09:07:52,25.0,0.0,-33.73,-70.75,84.2,3.36
portland,US,2020-01-26 09:05:24,81.0,40.0,45.52,-122.68,48.99,3.36
castro,BR,2020-01-26 09:07:22,44.0,0.0,-24.79,-50.01,80.98,6.98
lebanon,US,2020-01-26 09:07:53,80.0,90.0,36.21,-86.29,42.01,6.93
bambous virieux,MU,2020-01-26 09:07:53,78.0,75.0,-20.34,57.76,78.8,11.41
samarai,PG,2020-01-26 09:07:53,89.0,91.0,-10.62,150.67,76.46,4.85
sitka,US,2020-01-26 09:07:53,81.0,90.0,57.05,-135.33,42.8,17.22
faanui,PF,2020-01-26 09:07:53,72.0,15.0,-16.48,-151.75,82.26,8.61
naze,JP,2020-01-26 09:07:53,100.0,75.0,28.37,129.48,68.0,10.29
tual,ID,2020-01-26 09:07:54,71.0,18.0,-5.67,132.75,83.97,4.79
namatanai,PG,2020-01-26 09:07:54,77.0,100.0,-3.67,152.43,82.69,6.29
kavieng,PG,2020-01-26 09:07:54,77.0,96.0,-2.57,150.8,84.06,11.68
along,IN,2020-01-26 09:07:54,71.0,0.0,28.17,94.77,47.52,2.82
sao filipe,CV,2020-01-26 09:07:54,63.0,0.0,14.9,-24.5,76.06,14.16
lebu,CL,2020-01-26 09:07:55,52.0,0.0,-37.62,-73.65,74.71,9.01
camacha,PT,2020-01-26 09:07:55,63.0,20.0,33.08,-16.33,64.4,5.82
okha,RU,2020-01-26 09:07:55,86.0,0.0,53.57,142.95,-10.44,19.53
ambon,ID,2020-01-26 09:04:13,75.0,96.0,-3.7,128.18,82.27,4.25
maldonado,UY,2020-01-26 09:04:26,45.0,40.0,-34.67,-54.92,84.2,11.41
camapua,BR,2020-01-26 09:07:55,56.0,0.0,-19.53,-54.04,86.43,3.27
hovd,MN,2020-01-26 09:07:55,68.0,100.0,48.01,91.64,9.45,1.14
huatulco,MX,2020-01-26 09:07:56,73.0,5.0,15.84,-96.33,77.0,2.28
trebur,DE,2020-01-26 09:07:56,100.0,90.0,49.93,8.42,41.0,2.24
pacific grove,US,2020-01-26 09:04:25,100.0,90.0,36.62,-121.92,57.0,3.6
nouadhibou,MR,2020-01-26 09:07:56,26.0,0.0,20.93,-17.03,82.4,12.75
walvis bay,NA,2020-01-26 09:07:56,48.0,0.0,-22.96,14.51,82.4,24.16
bengkulu,ID,2020-01-26 09:07:56,86.0,100.0,-3.8,102.27,76.69,2.89
halifax,CA,2020-01-26 09:07:29,100.0,90.0,44.65,-63.57,41.0,18.34
victoria,HK,2020-01-26 09:05:37,71.0,40.0,22.29,114.16,57.99,14.99
bredasdorp,ZA,2020-01-26 09:07:57,40.0,0.0,-34.53,20.04,69.8,18.34
aykhal,RU,2020-01-26 09:07:57,74.0,90.0,66.0,111.5,-22.0,6.71
bosaso,SO,2020-01-26 09:07:57,76.0,87.0,11.28,49.18,77.56,9.26
rio gallegos,AR,2020-01-26 09:07:58,44.0,75.0,-51.62,-69.22,59.0,33.33
carmelo,UY,2020-01-26 09:07:08,30.0,33.0,-33.99,-58.29,86.0,12.75
nizhniy tsasuchey,RU,2020-01-26 09:07:58,94.0,70.0,50.52,115.13,-2.87,2.3
katsuura,JP,2020-01-26 09:07:58,70.0,75.0,35.13,140.3,42.8,8.05
moree,AU,2020-01-26 09:07:58,65.0,40.0,-29.47,149.85,80.6,12.75
ucluelet,CA,2020-01-26 09:06:42,87.0,90.0,48.93,-125.55,48.0,14.99
kirensk,RU,2020-01-26 09:07:58,95.0,100.0,57.79,108.11,18.32,7.11
san patricio,MX,2020-01-26 09:07:58,73.0,75.0,19.22,-104.7,73.4,6.93
sabya,SA,2020-01-26 09:07:59,69.0,0.0,17.15,42.63,78.8,13.87
fayaoue,NC,2020-01-26 09:07:59,80.0,100.0,-20.65,166.53,78.12,18.75
englewood,US,2020-01-26 09:07:59,41.0,1.0,39.65,-104.99,41.0,3.36
la troncal,EC,2020-01-26 09:07:59,82.0,90.0,-2.4,-79.33,84.2,2.24
san quintin,MX,2020-01-26 09:07:59,30.0,5.0,30.48,-115.95,45.0,1.99
padang,ID,2020-01-26 09:07:59,97.0,100.0,-0.95,100.35,69.91,2.3
belle fourche,US,2020-01-26 09:07:59,51.0,1.0,44.67,-103.85,39.2,11.54
narsaq,GL,2020-01-26 09:08:00,66.0,75.0,60.92,-46.05,12.2,5.82
acapulco,MX,2020-01-26 09:04:53,78.0,5.0,16.86,-99.89,77.0,4.7
dunmore town,BS,2020-01-26 09:08:00,72.0,17.0,25.5,-76.65,72.5,11.27
martil,MA,2020-01-26 09:08:00,63.0,20.0,35.62,-5.28,62.6,12.75
tura,IN,2020-01-26 09:08:00,65.0,12.0,25.52,90.22,59.88,2.71
port macquarie,AU,2020-01-26 09:08:00,88.0,72.0,-31.43,152.92,73.99,5.82
eqbaliyeh,IR,2020-01-26 09:08:00,51.0,0.0,35.3,51.54,39.2,6.33
challans,FR,2020-01-26 09:08:01,87.0,100.0,46.84,-1.87,53.01,12.75
nipawin,CA,2020-01-26 09:08:01,100.0,90.0,53.37,-104.0,15.8,10.29
camana,PE,2020-01-26 09:08:01,64.0,18.0,-16.62,-72.71,74.66,6.69
axim,GH,2020-01-26 09:08:01,33.0,19.0,4.87,-2.24,94.24,7.87
sola,VU,2020-01-26 09:08:02,77.0,0.0,-13.88,167.55,83.03,13.11
prainha,BR,2020-01-26 09:08:02,51.0,100.0,-1.8,-53.48,92.23,4.27
mindelo,CV,2020-01-26 09:08:02,61.0,40.0,16.89,-24.98,77.0,29.97
port hardy,CA,2020-01-26 09:08:02,87.0,90.0,50.7,-127.42,44.6,21.92
ostersund,SE,2020-01-26 09:08:02,93.0,75.0,63.18,14.64,35.01,6.93
do gonbadan,IR,2020-01-26 09:08:02,76.0,4.0,30.36,50.8,48.2,2.17
formosa do rio preto,BR,2020-01-26 09:08:03,86.0,100.0,-11.05,-45.19,74.66,2.06
trapani,IT,2020-01-26 09:08:03,82.0,20.0,37.83,12.67,59.0,14.99
solnechnyy,RU,2020-01-26 09:08:03,91.0,0.0,50.72,136.63,-8.59,1.36
luziania,BR,2020-01-26 09:08:04,73.0,75.0,-16.25,-47.95,77.0,12.75
correntina,BR,2020-01-26 09:08:04,98.0,100.0,-13.34,-44.64,70.05,3.31
aklavik,CA,2020-01-26 09:08:04,68.0,40.0,68.22,-135.01,-18.4,6.93
salinopolis,BR,2020-01-26 09:08:04,77.0,99.0,-0.61,-47.36,82.85,10.63
gizo,SB,2020-01-26 09:08:04,82.0,93.0,-8.1,156.84,77.32,4.54
cavalcante,BR,2020-01-26 09:08:04,96.0,100.0,-13.8,-47.46,65.75,7.4
brandon,US,2020-01-26 09:08:02,54.0,1.0,27.94,-82.29,61.0,3.36
umm kaddadah,SD,2020-01-26 09:08:05,10.0,21.0,13.6,26.69,74.52,17.16
punta alta,AR,2020-01-26 09:03:20,41.0,64.0,-38.88,-62.07,77.99,12.73
maebaru,JP,2020-01-26 09:08:05,70.0,100.0,33.55,130.2,48.99,11.41
bardiyah,LY,2020-01-26 09:08:05,50.0,100.0,31.76,25.09,60.84,5.84
xiaoyi,CN,2020-01-26 09:08:05,71.0,66.0,34.62,109.7,34.65,6.38
shahrud,IR,2020-01-26 09:08:05,62.0,0.0,36.42,54.98,22.32,2.33
yulara,AU,2020-01-26 09:08:05,13.0,0.0,-25.24,130.99,84.2,10.29
coquimbo,CL,2020-01-26 09:08:06,77.0,20.0,-29.95,-71.34,68.0,13.87
asyut,EG,2020-01-26 09:07:38,26.0,0.0,27.18,31.18,58.8,6.15
prince rupert,CA,2020-01-26 09:08:06,73.0,90.0,54.32,-130.32,42.8,2.24
champerico,GT,2020-01-26 09:08:06,74.0,20.0,14.3,-91.92,78.8,0.89
dillon,US,2020-01-26 09:03:27,65.0,1.0,34.42,-79.37,51.01,4.09
college,US,2020-01-26 09:08:06,72.0,33.0,64.86,-147.8,-16.01,3.69
pandan,PH,2020-01-26 09:08:06,81.0,100.0,14.05,124.17,80.85,6.67
tabas,IR,2020-01-26 09:08:07,49.0,0.0,33.6,56.92,46.4,4.7
norman wells,CA,2020-01-26 09:08:07,75.0,75.0,65.28,-126.83,-18.4,2.66
oktyabrskiy,RU,2020-01-26 09:08:07,93.0,80.0,54.48,53.47,15.57,8.86
bambanglipuro,ID,2020-01-26 09:08:07,87.0,100.0,-7.95,110.28,77.11,4.7
pyapon,MM,2020-01-26 09:08:07,73.0,100.0,16.28,95.68,63.16,4.52
kingaroy,AU,2020-01-26 09:08:07,88.0,75.0,-26.53,151.83,70.0,3.36
maniitsoq,GL,2020-01-26 09:08:07,63.0,100.0,65.42,-52.9,12.65,6.4
nalut,LY,2020-01-26 09:08:08,27.0,0.0,30.33,10.85,74.86,11.5
whyalla,AU,2020-01-26 09:08:08,77.0,40.0,-33.03,137.58,68.0,8.05
viransehir,TR,2020-01-26 09:08:08,53.0,1.0,37.24,39.76,44.67,6.35
vila franca do campo,PT,2020-01-26 09:08:08,93.0,75.0,37.72,-25.43,59.0,5.82
pangnirtung,CA,2020-01-26 09:08:08,99.0,100.0,66.15,-65.71,-37.8,1.97
grand forks,US,2020-01-26 09:08:08,100.0,90.0,47.93,-97.03,21.2,4.27
swift current,CA,2020-01-26 09:08:09,92.0,90.0,50.28,-107.8,24.8,9.17
novoagansk,RU,2020-01-26 09:08:09,96.0,100.0,61.94,76.66,-1.91,8.81
guadix,ES,2020-01-26 09:08:09,50.0,20.0,37.3,-3.14,53.6,5.82
bonavista,CA,2020-01-26 09:08:09,59.0,97.0,48.65,-53.11,30.99,10.0
tombouctou,ML,2020-01-26 09:08:09,5.0,31.0,20.0,-3.0,91.81,2.8
ranot,TH,2020-01-26 09:08:09,66.0,6.0,7.78,100.32,81.05,8.3
cortez,US,2020-01-26 09:08:10,92.0,1.0,37.35,-108.59,30.99,5.82
las vegas,US,2020-01-26 08:55:31,50.0,1.0,36.17,-115.14,48.0,0.72
cayenne,GF,2020-01-26 09:08:10,83.0,52.0,4.93,-52.33,80.6,12.75
bubaque,GW,2020-01-26 09:08:10,41.0,57.0,11.28,-15.83,83.55,9.37
domoni,KM,2020-01-26 09:08:10,73.0,100.0,-12.26,44.53,81.95,10.45
avera,US,2020-01-26 09:08:10,56.0,1.0,33.19,-82.53,48.99,8.05
nizhniy ingash,RU,2020-01-26 09:08:10,86.0,4.0,56.2,96.53,11.75,4.25
talnakh,RU,2020-01-26 09:03:33,84.0,75.0,69.49,88.4,1.4,4.47
kamaishi,JP,2020-01-26 09:08:11,62.0,0.0,39.27,141.88,28.06,5.77
japura,ID,2020-01-26 09:08:11,95.0,100.0,-0.32,102.35,76.66,3.04
tuatapere,NZ,2020-01-26 09:08:11,90.0,30.0,-46.13,167.68,53.01,1.01
acarau,BR,2020-01-26 09:08:11,53.0,54.0,-2.89,-40.12,91.15,14.2
hofn,IS,2020-01-26 09:08:12,67.0,90.0,64.25,-15.21,35.6,23.06
mabaruma,GY,2020-01-26 09:08:12,56.0,81.0,8.2,-59.78,87.06,3.22
vila velha,BR,2020-01-26 09:05:47,83.0,90.0,-20.33,-40.29,79.0,3.36
broome,US,2020-01-26 09:08:12,78.0,90.0,42.25,-75.83,37.99,12.75
svetlogorsk,BY,2020-01-26 09:08:12,82.0,26.0,52.63,29.73,34.52,8.01
deputatskiy,RU,2020-01-26 09:08:13,95.0,95.0,69.3,139.9,-33.27,1.57
phayao,TH,2020-01-26 09:08:13,23.0,0.0,19.25,100.25,63.1,1.28
fort payne,US,2020-01-26 09:08:13,69.0,90.0,34.44,-85.72,42.01,1.66
loukhi,RU,2020-01-26 09:08:13,89.0,85.0,66.08,33.04,16.97,14.76
tilichiki,RU,2020-01-26 09:08:13,91.0,100.0,60.47,166.1,29.34,21.0
kailua,US,2020-01-26 09:06:30,78.0,75.0,21.4,-157.74,73.4,17.96
ust-ilimsk,RU,2020-01-26 09:08:13,93.0,25.0,58.0,102.66,11.01,5.5
hambantota,LK,2020-01-26 09:08:14,88.0,75.0,6.12,81.12,78.8,4.7
broken hill,AU,2020-01-26 09:08:14,29.0,0.0,-31.95,141.43,78.8,13.87
gamboma,CG,2020-01-26 09:08:14,18.0,94.0,-1.88,15.86,96.28,5.21
kahului,US,2020-01-26 09:08:14,93.0,20.0,20.89,-156.47,66.99,10.29
udachnyy,RU,2020-01-26 09:08:14,74.0,90.0,66.42,112.4,-22.0,6.71
altay,CN,2020-01-26 09:08:14,93.0,100.0,47.87,88.12,13.06,2.42
pundaguitan,PH,2020-01-26 09:08:15,78.0,12.0,6.37,126.17,81.34,6.42
qasigiannguit,GL,2020-01-26 09:08:15,60.0,100.0,68.82,-51.19,10.4,8.05
askarovo,RU,2020-01-26 09:08:15,72.0,40.0,53.34,58.51,17.6,8.95
maarianhamina,AX,2020-01-26 09:07:07,86.0,100.0,60.1,19.93,39.2,2.24
wanning,CN,2020-01-26 09:08:15,88.0,99.0,18.8,110.4,59.29,8.66
mawlaik,MM,2020-01-26 09:08:15,58.0,0.0,23.63,94.42,55.71,1.03
ilulissat,GL,2020-01-26 09:06:05,60.0,100.0,69.22,-51.1,10.4,8.05
fortuna,US,2020-01-26 09:08:16,87.0,90.0,40.6,-124.16,52.0,3.36
menongue,AO,2020-01-26 09:08:16,57.0,44.0,-14.66,17.69,80.01,7.0
lamu,KE,2020-01-26 09:08:16,81.0,100.0,-2.27,40.9,82.44,8.79
itoman,JP,2020-01-26 09:08:16,94.0,75.0,26.12,127.67,73.4,9.17
ugoofaaru,MV,2020-01-26 09:08:16,73.0,98.0,5.67,73.0,82.22,7.0
nuuk,GL,2020-01-26 09:08:16,61.0,75.0,64.18,-51.72,14.0,18.34
zharkent,KZ,2020-01-26 09:08:17,86.0,98.0,44.16,80.0,24.17,4.97
semporna,MY,2020-01-26 09:08:17,94.0,75.0,4.48,118.61,78.8,3.36
alyangula,AU,2020-01-26 09:08:17,74.0,75.0,-13.85,136.42,86.0,8.05
isangel,VU,2020-01-26 09:08:17,88.0,82.0,-19.55,169.27,73.4,2.24
havre-saint-pierre,CA,2020-01-26 09:08:17,85.0,75.0,50.23,-63.6,23.0,10.29
kharakvasla,IN,2020-01-26 09:08:17,39.0,0.0,18.43,73.77,76.37,9.4
stanger,ZA,2020-01-26 09:08:17,88.0,75.0,-29.33,31.29,78.01,13.87
saldanha,ZA,2020-01-26 09:08:18,33.0,0.0,-33.01,17.94,71.6,18.34
susangerd,IR,2020-01-26 09:08:18,58.0,0.0,31.56,48.18,55.4,6.93
san cristobal,VE,2020-01-26 09:08:18,83.0,75.0,7.77,-72.22,77.0,6.93
murighiol,RO,2020-01-26 09:08:18,48.0,0.0,45.03,29.17,41.0,4.7
ponta delgada,PT,2020-01-26 09:08:18,93.0,75.0,37.73,-25.67,59.0,5.82
maceio,BR,2020-01-26 09:08:19,62.0,75.0,-9.67,-35.74,89.6,17.22
kurilsk,RU,2020-01-26 09:08:19,82.0,98.0,45.23,147.88,19.36,20.47
kirkenaer,NO,2020-01-26 09:08:19,86.0,75.0,60.46,12.06,42.8,10.29
beidao,CN,2020-01-26 09:08:19,81.0,93.0,34.57,105.89,27.34,3.98
ola,RU,2020-01-26 09:08:19,90.0,100.0,59.58,151.28,-6.47,13.56
yokadouma,CM,2020-01-26 09:08:19,10.0,0.0,3.52,15.05,98.71,3.69
damphu,BT,2020-01-26 09:08:19,89.0,0.0,27.07,90.11,41.07,4.83
richards bay,ZA,2020-01-26 09:08:19,82.0,0.0,-28.78,32.04,80.58,23.26
meulaboh,ID,2020-01-26 09:07:05,75.0,97.0,4.14,96.13,84.34,5.82
punta gorda,US,2020-01-26 09:07:02,54.0,1.0,26.93,-82.05,62.01,8.05
valparaiso,CL,2020-01-26 09:07:27,64.0,0.0,-33.04,-71.63,73.4,6.93
aden,YE,2020-01-26 09:06:31,65.0,0.0,12.78,45.04,80.8,7.67
los llanos de aridane,ES,2020-01-26 09:08:20,60.0,20.0,28.66,-17.92,68.0,5.82
itarema,BR,2020-01-26 09:08:20,53.0,54.0,-2.92,-39.92,91.15,14.2
hengyang,CN,2020-01-26 09:08:21,83.0,100.0,26.89,112.61,40.42,8.19
shimoda,JP,2020-01-26 09:08:21,70.0,75.0,34.67,138.95,46.4,9.17
marsh harbour,BS,2020-01-26 09:08:21,52.0,20.0,26.54,-77.06,71.11,10.16
vega de alatorre,MX,2020-01-26 09:08:21,75.0,97.0,20.03,-96.63,74.17,4.05
necochea,AR,2020-01-26 09:08:21,27.0,81.0,-38.55,-58.74,86.0,5.01
sokolovskoye,RU,2020-01-26 09:08:21,83.0,99.0,45.26,40.68,37.96,8.84
simao,CN,2020-01-26 09:08:22,46.0,0.0,22.79,100.97,46.78,3.42
mbour,SN,2020-01-26 09:08:22,12.0,99.0,14.42,-16.96,95.0,21.92
tarkwa,GH,2020-01-26 09:08:22,18.0,26.0,5.31,-1.98,99.82,3.0
medvedka,RU,2020-01-26 09:08:22,97.0,76.0,61.16,46.39,-3.8,3.13
iskateley,RU,2020-01-26 09:08:22,97.0,100.0,67.68,53.15,-3.66,7.78
brae,GB,2020-01-26 09:08:22,75.0,100.0,60.4,-1.35,44.6,18.34
malanje,AO,2020-01-26 09:08:22,83.0,75.0,-9.54,16.34,80.6,9.17
cidreira,BR,2020-01-26 09:08:23,62.0,0.0,-30.18,-50.21,78.21,7.85
ust-kuyga,RU,2020-01-26 09:08:23,88.0,0.0,70.02,135.6,-42.34,8.03
abu samrah,SY,2020-01-26 09:08:23,77.0,44.0,35.3,37.18,48.07,10.89
beeville,US,2020-01-26 09:06:45,98.0,100.0,28.4,-97.75,66.99,8.99
nakonde,ZM,2020-01-26 09:08:23,89.0,100.0,-9.34,32.74,72.37,5.68
kortkeros,RU,2020-01-26 09:08:23,84.0,75.0,61.81,51.58,5.0,4.47
henties bay,NA,2020-01-26 09:08:24,79.0,0.0,-22.12,14.28,71.01,8.99
kalmunai,LK,2020-01-26 09:08:24,70.0,100.0,7.42,81.82,80.33,13.22
imbituba,BR,2020-01-26 09:08:24,62.0,0.0,-28.24,-48.67,86.0,9.17
vukovar,HR,2020-01-26 09:08:24,86.0,100.0,45.34,19.0,48.99,8.05
jieshi,CN,2020-01-26 09:08:24,73.0,0.0,22.81,115.83,55.0,3.0
teahupoo,PF,2020-01-26 09:08:24,78.0,83.0,-17.83,-149.27,78.8,2.24
tigil,RU,2020-01-26 09:08:25,76.0,100.0,57.8,158.67,21.83,12.88
marmaris,TR,2020-01-26 09:08:25,71.0,40.0,36.85,28.27,60.8,5.82
russellville,US,2020-01-26 09:08:25,87.0,40.0,35.28,-93.13,51.01,10.29
nanga eboko,CM,2020-01-26 09:08:25,9.0,14.0,4.68,12.37,98.35,2.71
vigrestad,NO,2020-01-26 09:08:25,87.0,75.0,58.57,5.7,44.6,17.22
costa rica,BR,2020-01-26 09:08:25,54.0,0.0,-23.42,-54.65,86.11,4.07
karmaskaly,RU,2020-01-26 09:08:26,85.0,90.0,54.37,56.18,24.8,13.42
trelew,AR,2020-01-26 09:08:26,30.0,28.0,-43.25,-65.31,67.71,15.41
hof,DE,2020-01-26 09:08:26,100.0,90.0,50.32,11.92,39.99,3.36
palauig,PH,2020-01-26 09:08:26,84.0,69.0,15.44,119.9,72.5,6.2
neka,IR,2020-01-26 09:08:26,81.0,0.0,36.65,53.3,44.6,4.7
yermakovskoye,RU,2020-01-26 09:08:27,96.0,85.0,53.28,92.4,16.2,3.15
labuhan,ID,2020-01-26 09:08:27,83.0,4.0,-6.88,112.21,77.97,2.55
sao joao da barra,BR,2020-01-26 09:08:27,69.0,75.0,-21.64,-41.05,80.6,7.16
de haan,BE,2020-01-26 09:08:27,87.0,75.0,51.27,3.04,48.0,14.99
half moon bay,US,2020-01-26 09:08:27,100.0,90.0,37.46,-122.43,55.99,3.36
gamba,GA,2020-01-26 09:08:27,71.0,85.0,-2.65,10.0,84.52,9.1
quatre cocos,MU,2020-01-26 09:08:28,78.0,75.0,-20.21,57.76,78.8,11.41
shenjiamen,CN,2020-01-26 09:08:28,90.0,100.0,29.96,122.3,53.44,21.94
klyuchi,RU,2020-01-26 09:08:28,76.0,79.0,52.27,79.17,13.95,16.06
sao gabriel da cachoeira,BR,2020-01-26 09:08:28,89.0,40.0,-0.13,-67.09,86.0,5.82
orlik,RU,2020-01-26 09:08:28,68.0,12.0,52.52,99.83,-0.33,2.04
grootfontein,NA,2020-01-26 09:08:29,19.0,40.0,-19.57,18.12,89.6,5.82
tabou,CI,2020-01-26 09:08:29,59.0,48.0,4.42,-7.35,88.56,8.79
unnao,IN,2020-01-26 09:08:29,87.0,0.0,26.53,80.5,55.4,4.12
maloy,NO,2020-01-26 09:08:29,75.0,100.0,61.94,5.11,48.2,20.8
northam,GB,2020-01-26 09:08:29,94.0,100.0,51.03,-4.22,50.0,3.0
shebalino,RU,2020-01-26 09:08:29,93.0,28.0,51.29,85.68,7.11,2.28
khorramshahr,IR,2020-01-26 09:08:29,41.0,0.0,30.44,48.17,59.0,18.34
tarauaca,BR,2020-01-26 09:08:29,71.0,100.0,-8.16,-70.77,82.62,1.3
olafsvik,IS,2020-01-26 09:08:30,96.0,100.0,64.89,-23.71,32.67,18.5
garagoa,CO,2020-01-26 09:05:24,88.0,100.0,5.08,-73.36,59.85,2.98
eyl,SO,2020-01-26 09:08:30,78.0,0.0,7.98,49.82,78.96,24.43
vallenar,CL,2020-01-26 09:08:30,47.0,9.0,-28.57,-70.76,79.79,9.95
smoky lake,CA,2020-01-26 09:08:30,91.0,0.0,54.12,-112.47,3.0,1.01
handan,CN,2020-01-26 09:08:30,47.0,97.0,36.6,114.47,36.9,4.0
vao,NC,2020-01-26 09:08:30,82.0,100.0,-22.67,167.48,77.54,13.6
sale,MA,2020-01-26 09:08:31,63.0,40.0,34.04,-6.82,62.6,6.93
port lincoln,AU,2020-01-26 09:08:31,81.0,4.0,-34.73,135.87,63.9,10.25
mao,ES,2020-01-26 09:08:31,72.0,20.0,39.89,4.27,60.8,6.93
kozhva,RU,2020-01-26 09:08:31,99.0,98.0,65.11,57.05,-11.9,3.11
poum,NC,2020-01-26 09:08:31,82.0,100.0,-20.23,164.02,79.57,23.29
odweyne,SO,2020-01-26 09:08:31,67.0,87.0,9.41,45.06,70.25,16.58
hamilton,US,2020-01-26 09:07:29,80.0,90.0,39.18,-84.53,35.01,6.93
moindou,NC,2020-01-26 09:08:32,83.0,67.0,-21.69,165.68,71.6,1.12
general roca,AR,2020-01-26 09:08:32,34.0,0.0,-39.03,-67.58,80.6,11.41
rosario,AR,2020-01-26 09:06:34,33.0,33.0,-32.95,-60.64,93.99,4.7
two hills,CA,2020-01-26 09:08:32,95.0,94.0,53.72,-111.75,29.52,8.95
sladkovo,RU,2020-01-26 09:08:32,93.0,100.0,55.53,70.34,21.04,18.54
oyama,JP,2020-01-26 09:08:33,74.0,75.0,36.3,139.8,45.0,3.36
port-cartier,CA,2020-01-26 09:08:33,85.0,90.0,50.03,-66.87,25.0,11.41
ahuimanu,US,2020-01-26 09:08:33,78.0,75.0,21.44,-157.84,73.4,4.29
port hedland,AU,2020-01-26 09:08:33,84.0,40.0,-20.32,118.57,87.8,8.05
lashio,MM,2020-01-26 09:08:33,46.0,0.0,22.93,97.75,49.46,2.26
qobustan,AZ,2020-01-26 09:08:33,86.0,0.0,40.08,49.41,41.0,6.93
vostok,RU,2020-01-26 09:08:33,97.0,99.0,46.49,135.88,-4.31,5.26
kenai,US,2020-01-26 09:08:33,82.0,1.0,60.55,-151.26,-2.99,3.36
guatire,VE,2020-01-26 09:08:34,59.0,52.0,10.48,-66.54,80.6,4.7
trenggalek,ID,2020-01-26 09:08:34,91.0,66.0,-8.05,111.72,75.34,1.68
alamos,MX,2020-01-26 09:08:34,89.0,0.0,27.02,-108.93,59.0,4.0
mount gambier,AU,2020-01-26 09:08:34,100.0,90.0,-37.83,140.77,50.0,4.7
asilah,MA,2020-01-26 09:08:34,63.0,40.0,35.47,-6.03,62.6,5.82
wad rawah,SD,2020-01-26 09:08:34,14.0,0.0,15.16,33.14,81.25,14.25
dwarka,IN,2020-01-26 09:08:35,76.0,0.0,22.24,68.97,72.99,11.23
lufilufi,WS,2020-01-26 09:08:35,94.0,100.0,-13.87,-171.6,80.01,8.01
amarillo,US,2020-01-26 09:06:19,80.0,1.0,35.22,-101.83,45.0,2.44
sheridan,US,2020-01-26 09:08:35,69.0,90.0,44.83,-106.92,37.99,6.93
kijang,KR,2020-01-26 09:08:35,71.0,90.0,35.24,129.21,50.0,16.11
dingle,PH,2020-01-26 09:08:35,92.0,46.0,11.0,122.67,74.57,3.0
poroshkovo,UA,2020-01-26 09:08:35,85.0,75.0,48.67,22.75,32.0,3.02
porto velho,BR,2020-01-26 09:07:23,70.0,40.0,-8.76,-63.9,87.8,2.24
khasan,RU,2020-01-26 09:08:36,74.0,0.0,42.43,130.64,17.76,3.89
vaitape,PF,2020-01-26 09:08:36,72.0,15.0,-16.52,-151.75,82.26,8.61
guerrero negro,MX,2020-01-26 09:08:36,89.0,0.0,27.98,-114.06,58.5,6.13
thohoyandou,ZA,2020-01-26 09:08:36,25.0,0.0,-22.95,30.48,94.28,5.68
lakes entrance,AU,2020-01-26 09:08:36,79.0,94.0,-37.88,147.98,66.0,1.01
baykit,RU,2020-01-26 09:08:36,97.0,71.0,61.67,96.37,1.38,3.24
saint-philippe,RE,2020-01-26 09:08:36,74.0,75.0,-21.36,55.77,78.8,17.22
port shepstone,ZA,2020-01-26 09:08:37,81.0,82.0,-30.74,30.45,76.01,19.55
saryg-sep,RU,2020-01-26 09:08:37,91.0,98.0,51.5,95.6,0.82,0.94
ostrovnoy,RU,2020-01-26 09:08:37,99.0,98.0,68.05,39.51,-1.8,5.17
sobolevo,RU,2020-01-26 09:08:37,85.0,100.0,54.43,31.9,34.25,14.9
osakarovka,KZ,2020-01-26 09:08:37,91.0,100.0,50.56,72.57,17.11,29.19
boguchany,RU,2020-01-26 09:08:37,95.0,38.0,58.38,97.45,8.67,4.52
kudahuvadhoo,MV,2020-01-26 09:08:37,74.0,98.0,2.67,72.89,81.59,10.27
krasnoselkup,RU,2020-01-26 09:08:38,95.0,98.0,65.7,82.47,0.03,11.9
bogovarovo,RU,2020-01-26 09:08:38,96.0,100.0,58.98,47.02,2.93,5.1
zambezi,ZM,2020-01-26 09:08:38,70.0,36.0,-13.54,23.1,79.57,6.24
kedrovyy,RU,2020-01-26 09:08:38,48.0,48.0,56.17,91.82,21.2,11.18
agadez,NE,2020-01-26 09:08:38,6.0,29.0,19.75,10.25,79.39,3.22
nishihara,JP,2020-01-26 09:08:38,94.0,90.0,26.18,127.76,73.4,8.05
mecca,SA,2020-01-26 09:08:38,12.0,0.0,21.43,39.83,73.4,3.94
cristalina,BR,2020-01-26 09:08:39,77.0,100.0,-16.77,-47.61,77.4,9.89
pascagoula,US,2020-01-26 09:08:39,87.0,90.0,30.37,-88.56,53.01,4.7
mykolayivka,UA,2020-01-26 09:08:39,69.0,98.0,47.54,30.76,38.59,0.85
roxana,CR,2020-01-26 09:08:39,50.0,5.0,10.28,-83.75,77.0,14.99
tabat,ID,2020-01-26 09:08:39,90.0,34.0,-2.63,115.23,75.83,2.26
kirkland lake,CA,2020-01-26 09:08:39,97.0,90.0,48.14,-80.04,32.0,3.36
saint-paul,RE,2020-01-26 09:08:39,78.0,90.0,-21.01,55.27,78.8,10.29
pauini,BR,2020-01-26 09:08:40,48.0,69.0,-7.71,-66.98,92.5,3.0
pevek,RU,2020-01-26 09:08:40,96.0,100.0,69.7,170.31,-7.82,1.01
katangli,RU,2020-01-26 09:08:40,92.0,0.0,51.71,143.23,-9.56,9.44
havelock,US,2020-01-26 09:08:40,57.0,1.0,34.88,-76.9,52.0,10.29
kaabong,UG,2020-01-26 09:08:40,45.0,100.0,3.48,34.15,77.81,9.73
luau,AO,2020-01-26 09:08:41,67.0,53.0,-10.71,22.22,81.23,2.48
vilyuysk,RU,2020-01-26 09:08:41,95.0,100.0,63.76,121.62,-19.89,13.96
pampa,US,2020-01-26 09:08:41,55.0,1.0,35.54,-100.96,37.4,8.05
sao francisco,BR,2020-01-26 09:08:41,93.0,100.0,-15.95,-44.86,74.89,7.14
yamada,JP,2020-01-26 09:08:41,62.0,0.0,39.47,141.95,28.06,5.77
fougamou,GA,2020-01-26 09:08:41,58.0,38.0,-1.22,10.58,88.57,2.95
aberdeen,GB,2020-01-26 09:06:08,81.0,75.0,57.14,-2.1,45.0,8.05
gobabis,NA,2020-01-26 09:08:42,17.0,77.0,-22.45,18.97,88.99,6.55
los alamos,US,2020-01-26 09:08:42,59.0,1.0,35.89,-106.31,39.0,3.78
aksu,CN,2020-01-26 09:08:42,65.0,93.0,41.12,80.26,25.81,4.41
gushi,CN,2020-01-26 09:08:42,71.0,66.0,34.64,109.58,34.65,6.38
ludhiana,IN,2020-01-26 09:08:42,81.0,0.0,30.9,75.85,52.77,5.14
dudinka,RU,2020-01-26 09:08:42,84.0,75.0,69.41,86.18,1.4,4.47
birjand,IR,2020-01-26 09:08:42,55.0,20.0,32.87,59.22,39.2,6.93
garowe,SO,2020-01-26 09:05:06,24.0,4.0,8.41,48.48,91.15,12.73
srednekolymsk,RU,2020-01-26 09:08:43,96.0,100.0,67.45,153.68,-23.26,5.57
neyshabur,IR,2020-01-26 09:08:43,79.0,0.0,36.21,58.8,29.07,0.87
ca mau,VN,2020-01-26 09:08:43,93.0,0.0,9.18,105.15,72.23,2.37
grenada,ES,2020-01-26 09:08:43,50.0,20.0,37.19,-3.61,64.0,5.82
idar,DE,2020-01-26 09:08:43,100.0,90.0,49.72,7.3,46.99,8.05
bukachacha,RU,2020-01-26 09:08:43,96.0,71.0,52.98,116.92,-5.24,1.77
basoko,CD,2020-01-26 09:08:44,17.0,45.0,1.24,23.62,96.35,4.52
wanaka,NZ,2020-01-26 09:08:44,81.0,100.0,-44.7,169.15,53.29,7.02
korcula,HR,2020-01-26 09:08:44,93.0,90.0,42.96,17.14,50.0,3.36
petropavlovsk-kamchatskiy,RU,2020-01-26 09:08:44,100.0,40.0,53.05,158.65,23.0,6.71
fort nelson,CA,2020-01-26 09:08:44,92.0,90.0,58.81,-122.7,5.0,7.05
requena,ES,2020-01-26 09:08:44,39.0,20.0,39.49,-1.1,66.2,6.93
saint-denis,FR,2020-01-26 09:05:04,81.0,75.0,48.92,2.33,48.2,5.82
chapais,CA,2020-01-26 09:08:45,85.0,90.0,49.78,-74.85,24.8,8.05
evensk,RU,2020-01-26 09:08:45,90.0,100.0,61.95,159.23,15.57,16.31
quesnel,CA,2020-01-26 09:08:45,92.0,90.0,53.0,-122.5,23.0,2.24
ovsyanka,RU,2020-01-26 09:08:45,48.0,66.0,55.96,92.55,21.2,11.18
bowen,AU,2020-01-26 09:08:45,94.0,90.0,-20.02,148.23,77.0,5.82
pinega,RU,2020-01-26 09:08:46,99.0,85.0,64.7,43.39,-6.0,2.21
athabasca,CA,2020-01-26 09:08:46,89.0,0.0,54.72,-113.29,18.93,7.94
paraiso,CR,2020-01-26 09:08:46,50.0,2.0,9.84,-83.87,77.0,14.99
bac lieu,VN,2020-01-26 09:08:46,86.0,0.0,9.29,105.72,73.9,3.44
coihueco,CL,2020-01-26 09:08:46,47.0,0.0,-36.62,-71.83,78.8,11.41
strezhevoy,RU,2020-01-26 09:08:46,84.0,40.0,60.73,77.59,3.2,6.71
ahipara,NZ,2020-01-26 09:08:46,100.0,0.0,-35.17,173.17,63.0,7.31
rio grande,BR,2020-01-26 09:08:47,58.0,40.0,-32.03,-52.1,86.0,5.82
adelaide,AU,2020-01-26 09:08:47,82.0,0.0,-34.93,138.6,64.0,1.12
presidencia roque saenz pena,AR,2020-01-26 09:08:47,32.0,54.0,-26.79,-60.44,94.28,4.09
nagornyy,RU,2020-01-26 09:08:47,77.0,83.0,52.8,83.55,6.8,8.95
watsonville,US,2020-01-26 09:06:42,100.0,90.0,36.91,-121.76,57.2,3.69
scarborough,GB,2020-01-26 09:08:47,93.0,100.0,54.28,-0.4,46.99,13.87
barra patuca,HN,2020-01-26 09:08:48,60.0,2.0,15.8,-84.28,78.44,9.42
urumqi,CN,2020-01-26 09:08:48,85.0,36.0,43.8,87.6,10.4,2.24
